城市名称,longitude,latitude
北京,116.46,39.92
平谷,117.1,40.13
密云,116.85,40.37
顺义,116.65,40.13
通县,116.67,39.9 2
怀柔,116.62,40.32
大兴,116.33,39.73
房山,115.98,39.72
延庆,115.97,40.47
昌平,116.2,40.22
NaN,NaN,NaN
NaN,nan,nan
